id,month,day,hour,weekday,fatal_injuries,serious_injuries,minor_injuries,latitude,longitude,municipality,street
75,Jan,2,11,Monday,0,0,1,38.738304,-9.154762,Lisboa,Avenida de Berna
81,Jan,2,12,Monday,0,0,1,38.729554,-9.134547,Lisboa,Avenida Almirante Reis
122,Jan,2,18,Monday,0,0,1,38.72409,-9.179227,Lisboa,Autoestrada da Costa do Estoril
136,Jan,2,19,Monday,0,0,1,38.770221,-9.109392,Lisboa,Rua Contra-Almirante Armando Ferraz
144,Jan,3,5,Tuesday,0,0,1,38.714956,-9.140986,Lisboa,Rua 1º de Dezembro
153,Jan,3,8,Tuesday,0,0,1,38.731423,-9.137639,Lisboa,Rua José Estevão
170,Jan,3,9,Tuesday,0,0,1,38.752286,-9.151186,Lisboa,Ciclovia Campo Grande
174,Jan,3,9,Tuesday,0,0,1,38.755027,-9.139186,Lisboa,Avenida do Rio de Janeiro
176,Jan,3,9,Tuesday,0,0,1,38.754489,-9.152776,Lisboa,Campo Grande
180,Jan,3,9,Tuesday,0,0,1,38.720748,-9.160578,Lisboa,Rua Dom João V
181,Jan,3,10,Tuesday,0,0,1,38.757406,-9.178663,Lisboa,Avenida Eusébio da Silva Ferreira/2ª Circular
213,Jan,3,14,Tuesday,0,0,1,38.705314,-9.158065,Lisboa,Avenida 24 de Julho
219,Jan,3,15,Tuesday,0,0,1,38.720249,-9.154793,Lisboa,Vila Visconde de Santo Ambrósio
228,Jan,3,16,Tuesday,0,0,1,38.739085,-9.15812,Lisboa,Rua Professor Lima Basto
237,Jan,3,17,Tuesday,0,0,1,38.696317,-9.198001,Lisboa,Avenida da Índia
259,Jan,3,19,Tuesday,0,0,1,38.742096,-9.132403,Lisboa,Túnel da Avenida João XXI
262,Jan,3,20,Tuesday,0,0,1,38.720432,-9.135521,Lisboa,Avenida Almirante Reis
271,Jan,4,2,Wednesday,0,0,1,38.750307,-9.112014,Lisboa,Avenida Marechal António de Spínola
304,Jan,4,11,Wednesday,0,0,1,38.734792,-9.124842,Lisboa,Avenida Marechal Francisco da Costa Gomes
307,Jan,4,12,Wednesday,0,0,1,38.790258,-9.150628,Lisboa,Estrada Militar
314,Jan,4,13,Wednesday,0,0,1,38.721971,-9.147167,Lisboa,Rua Barata Salgueiro
340,Jan,4,15,Wednesday,0,0,2,38.722296,-9.186421,Lisboa,Estrada do Alvito
358,Jan,4,18,Wednesday,0,0,1,38.746962,-9.190545,Lisboa,Rua Paulo Renato
373,Jan,4,19,Wednesday,0,0,1,38.766754,-9.154373,Lisboa,Avenida Maria Helena Vieira da Silva
413,Jan,5,10,Thursday,0,0,1,38.714629,-9.140615,Lisboa,Rua 1º de Dezembro
425,Jan,5,12,Thursday,0,0,1,38.752522,-9.170014,Lisboa,Eixo Norte-Sul
438,Jan,5,15,Thursday,0,0,1,38.719715,-9.135617,Lisboa,Rua da Palma
453,Jan,5,17,Thursday,0,0,1,38.768929,-9.116139,Lisboa,Avenida Doutor Francisco Luís Gomes
457,Jan,5,18,Thursday,0,0,1,38.763894,-9.167001,Lisboa,Rua Professor Vieira de Almeida
461,Jan,5,18,Thursday,0,0,1,38.767637,-9.104489,Lisboa,Avenida de Berlim
469,Jan,5,19,Thursday,0,0,1,38.723667,-9.11759,Lisboa,Calçada das Lajes
470,Jan,5,20,Thursday,0,0,1,38.723816,-9.162838,Lisboa,Avenida Engenheiro Duarte Pacheco
483,Jan,5,23,Thursday,0,0,1,38.783009,-9.12315,Lisboa,Avenida Engenheiro Duarte Pacheco
503,Jan,6,9,Friday,0,0,1,38.729678,-9.14753,Lisboa,Ciclovia da Avenida Fontes Pereira de Melo
528,Jan,6,15,Friday,0,0,1,38.757185,-9.166504,Lisboa,Avenida General Norton de Matos/2ª Circular
564,Jan,6,22,Friday,0,0,1,38.751306,-9.168947,Lisboa,Eixo Norte-Sul
576,Jan,7,11,Saturday,0,0,1,38.715901,-9.158635,Lisboa,Avenida Pedro Álvares Cabral
579,Jan,7,11,Saturday,0,0,1,38.704585,-9.176227,Lisboa,Rua Fradesso da Silveira
584,Jan,7,12,Saturday,0,0,1,38.774706,-9.11145,Lisboa,Rua Sargento Armando Monteiro Ferreira
589,Jan,7,13,Saturday,0,0,1,38.724026,-9.160558,Lisboa,Rua Carlos Alberto da Mota Pinto
591,Jan,7,13,Saturday,0,0,1,38.711043,-9.148253,Lisboa,Travessa da Condessa do Rio
650,Jan,8,4,Sunday,0,0,1,38.703582,-9.166943,Lisboa,Avenida 24 de Julho
654,Jan,8,8,Sunday,0,0,2,38.745382,-9.192404,Lisboa,Estrada do Calhariz de Benfica
656,Jan,8,9,Sunday,0,0,1,38.740702,-9.200841,Lisboa,Avenida Eusébio da Silva Ferreira/2ª Circular
660,Jan,8,11,Sunday,0,0,2,38.723484,-9.164176,Lisboa,Avenida Engenheiro Duarte Pacheco
700,Jan,8,22,Sunday,0,0,1,38.74608,-9.155746,Lisboa,Avenida Álvaro Pais
701,Jan,8,23,Sunday,0,0,1,38.703323,-9.167487,Lisboa,Avenida de Brasília
3303,Feb,6,10,Monday,0,0,1,38.745279,-9.147389,Lisboa,Avenida da República
3331,Feb,6,16,Monday,0,0,1,38.76964,-9.19493,Lisboa,Estrada Militar
3346,Feb,6,18,Monday,0,0,1,38.737982,-9.172866,Lisboa,Radial de Benfica
3351,Feb,6,18,Monday,0,0,1,38.739797,-9.142562,Lisboa,Rua de Dona Filipa de Vilhena
3362,Feb,6,21,Monday,0,0,1,38.759036,-9.156327,Lisboa,Campo Grande
3365,Feb,6,22,Monday,0,0,1,38.73499,-9.12501,Lisboa,Avenida Marechal Francisco da Costa Gomes
3380,Feb,7,9,Tuesday,0,0,1,38.723124,-9.175417,Lisboa,Eixo Norte-Sul
3410,Feb,7,15,Tuesday,0,0,1,38.767516,-9.097772,Lisboa,Avenida Dom João II
3436,Feb,7,19,Tuesday,0,0,1,38.733991,-9.149681,Lisboa,Rua Pinheiro Chagas
3473,Feb,8,13,Wednesday,0,0,1,38.755823,-9.187392,Lisboa,Rua Albert Einstein
3486,Feb,8,15,Wednesday,0,0,1,38.732892,-9.146693,Lisboa,Avenida 5 de Outubro
3504,Feb,8,18,Wednesday,0,0,2,38.757656,-9.179198,Lisboa,Estrada da Luz
3515,Feb,8,21,Wednesday,1,0,0,38.75275,-9.17004,Lisboa,Eixo Norte-Sul
3516,Feb,8,22,Wednesday,0,0,1,38.749933,-9.119064,Lisboa,Avenida Cidade de Bratislava
3520,Feb,9,1,Thursday,0,0,1,38.77035,-9.166764,Lisboa,Eixo Norte-Sul
3521,Feb,9,1,Thursday,0,0,1,38.764998,-9.177163,Lisboa,Azinhaga da Torre do Fato
3538,Feb,9,9,Thursday,0,0,1,38.737339,-9.144012,Lisboa,Avenida Defensores de Chaves
3551,Feb,9,10,Thursday,0,0,1,38.70669,-9.174383,Lisboa,Rua do Alvito
3554,Feb,9,11,Thursday,0,0,2,38.759624,-9.111538,Lisboa,Rua Cidade de Bissau
3562,Feb,9,13,Thursday,0,0,1,38.757019,-9.141432,Lisboa,Rua de João Saraiva
3565,Feb,9,13,Thursday,0,0,1,38.767599,-9.104242,Lisboa,Via Recíproca
3580,Feb,9,15,Thursday,0,0,1,38.717599,-9.129931,Lisboa,Largo da Graça
3593,Feb,9,18,Thursday,0,0,1,38.780198,-9.16439,Lisboa,Calçada de Carriche
3605,Feb,9,19,Thursday,0,0,1,38.73538,-9.14495,Lisboa,Avenida Duque de Ávila
3665,Feb,10,14,Friday,0,0,1,38.734033,-9.149685,Lisboa,Rua Pinheiro Chagas
3670,Feb,10,15,Friday,0,0,1,38.764354,-9.131195,Lisboa,Rua Interior ao Aeroporto da Portela
3673,Feb,10,15,Friday,0,0,1,38.741484,-9.124472,Lisboa,Avenida Engenheiro Arantes e Oliveira
3678,Feb,10,16,Friday,0,0,1,38.752234,-9.2059,Lisboa,Estrada de Benfica
3682,Feb,10,16,Friday,0,0,1,38.728169,-9.137649,Lisboa,Rua José Estevão
3724,Feb,11,4,Saturday,0,0,1,38.76305,-9.134878,Lisboa,Avenida Marechal Craveiro Lopes/2ª Circular
3732,Feb,11,7,Saturday,0,0,1,38.71684,-9.152648,Lisboa,Rua da Imprensa Nacional
3806,Feb,12,0,Sunday,0,0,1,38.734301,-9.15392,Lisboa,Avenida António Augusto de Aguiar
3809,Feb,12,2,Sunday,0,0,1,38.774771,-9.097143,Lisboa,Praça do Venturoso
5695,Mar,6,7,Monday,0,0,1,38.709451,-9.136327,Lisboa,Rua da Prata
5712,Mar,6,9,Monday,0,0,1,38.724035,-9.148803,Lisboa,Avenida da Liberdade
5732,Mar,6,12,Monday,0,0,1,38.72927,-9.134484,Lisboa,Avenida Almirante Reis
5740,Mar,6,13,Monday,0,0,1,38.761734,-9.114905,Lisboa,Rua Cidade de Bolama
5762,Mar,6,17,Monday,0,0,1,38.770123,-9.109048,Lisboa,Rua Contra-Almirante Armando Ferraz
5772,Mar,6,18,Monday,0,0,1,38.774454,-9.10585,Lisboa,Avenida Doutor Alfredo Bensaúde
5785,Mar,6,22,Monday,0,0,1,38.718614,-9.217802,Lisboa,Circular Regional Interior de Lisboa (CRIL)
5804,Mar,7,8,Tuesday,0,0,1,38.768971,-9.195641,Lisboa,Estrada Militar
5814,Mar,7,9,Tuesday,0,0,1,38.720648,-9.130108,Lisboa,Rua da Graça
5818,Mar,7,9,Tuesday,0,0,1,38.759653,-9.19066,Lisboa,Estrada da Correia
5832,Mar,7,13,Tuesday,0,0,1,38.747947,-9.150137,Lisboa,Avenida das Forças Armadas
5843,Mar,7,16,Tuesday,0,0,1,38.724,-9.182961,Lisboa,Pista Pedreira Preta
5868,Mar,7,19,Tuesday,0,0,1,38.689634,-9.176985,Lisboa,Ponte 25 de Abril
5870,Mar,7,20,Tuesday,0,0,1,38.727822,-9.155998,Lisboa,Rua Sampaio e Pina
5887,Mar,8,8,Wednesday,0,0,1,38.748817,-9.130701,Lisboa,Avenida Marechal António de Spínola
5914,Mar,8,13,Wednesday,0,0,1,38.774285,-9.152341,Lisboa,Avenida Carlos Paredes
5919,Mar,8,15,Wednesday,0,0,2,38.733415,-9.144249,Lisboa,Avenida Casal Ribeiro
5926,Mar,8,16,Wednesday,0,0,1,38.723681,-9.135147,Lisboa,Avenida Almirante Reis
5927,Mar,8,16,Wednesday,0,0,1,38.72286,-9.199704,Lisboa,Autoestrada da Costa do Estoril
5936,Mar,8,17,Wednesday,0,0,1,38.711946,-9.175499,Lisboa,Rua da Quinta do Cabrinha
5939,Mar,8,17,Wednesday,0,0,1,38.762986,-9.130058,Lisboa,Avenida Marechal Gomes da Costa
5944,Mar,8,18,Wednesday,0,0,1,38.759945,-9.111668,Lisboa,Rua Cidade de Bissau
5978,Mar,9,10,Thursday,0,0,1,38.750649,-9.197711,Lisboa,Estrada de Benfica
5986,Mar,9,12,Thursday,0,0,1,38.762993,-9.106598,Lisboa,Ciclovia Avenida de Pádua
5989,Mar,9,13,Thursday,0,0,1,38.761672,-9.163249,Lisboa,Rua Professor Fernando da Fonseca
5998,Mar,9,15,Thursday,0,0,1,38.76194,-9.147575,Lisboa,Avenida Marechal Craveiro Lopes/2ª Circular
6033,Mar,9,21,Thursday,0,0,1,38.713082,-9.175639,Lisboa,Avenida de Ceuta
6036,Mar,9,21,Thursday,0,0,1,38.729419,-9.125659,Lisboa,Avenida Mouzinho de Albuquerque
6039,Mar,10,3,Friday,0,0,1,38.705834,-9.177606,Lisboa,Rua dos Lusíadas
6066,Mar,10,11,Friday,0,0,1,38.731432,-9.148478,Lisboa,Rua Tomás Ribeiro
6070,Mar,10,12,Friday,0,0,1,38.762295,-9.163574,Lisboa,Avenida Padre Cruz
6091,Mar,10,16,Friday,0,0,1,38.721574,-9.17551,Lisboa,Avenida de Ceuta
6108,Mar,10,19,Friday,0,0,1,38.788771,-9.150641,Lisboa,Estrada Militar
6164,Mar,11,12,Saturday,0,0,1,38.724463,-9.128601,Lisboa,Avenida General Roçadas
6166,Mar,11,13,Saturday,0,0,1,38.764742,-9.103896,Lisboa,Avenida Infante Dom Henrique
6175,Mar,11,14,Saturday,0,0,1,38.727239,-9.141855,Lisboa,Rua Gomes Freire
6195,Mar,11,18,Saturday,0,0,1,38.732627,-9.132373,Lisboa,Rua Cavaleiro de Oliveira
6205,Mar,11,21,Saturday,0,0,1,38.717741,-9.151508,Lisboa,Rua da Escola Politécnica
6212,Mar,11,22,Saturday,0,0,2,38.750901,-9.142801,Lisboa,Avenida de Roma
6231,Mar,12,9,Sunday,0,0,3,38.71217,-9.179622,Lisboa,Estrada do Alvito
6256,Mar,12,13,Sunday,0,0,2,38.721437,-9.146685,Lisboa,Avenida da Liberdade
6290,Mar,12,18,Sunday,0,0,1,38.712093,-9.153019,Lisboa,Avenida Engenheiro Duarte Pacheco
8235,Apr,3,7,Monday,0,0,1,38.774333,-9.166482,Lisboa,Estrada do Lumiar
8276,Apr,3,13,Monday,0,0,1,38.716737,-9.119091,Lisboa,Avenida Infante Dom Henrique
8302,Apr,3,18,Monday,0,0,1,38.793332,-9.153439,Lisboa,Rua do Grafanil
8311,Apr,3,20,Monday,0,0,1,38.737262,-9.145449,Lisboa,Avenida Miguel Bombarda
8314,Apr,3,21,Monday,0,0,2,38.767055,-9.165155,Lisboa,Avenida Padre Cruz
8329,Apr,4,8,Tuesday,0,0,1,38.710826,-9.139574,Lisboa,Rua Nova do Almada
8356,Apr,4,13,Tuesday,0,0,1,38.759737,-9.162809,Lisboa,Rua Professor Vítor Fontes
8386,Apr,4,17,Tuesday,0,0,1,38.72388,-9.132075,Lisboa,Rua do Forno do Tijolo
8396,Apr,4,17,Tuesday,0,0,1,38.72367,-9.197482,Lisboa,Autoestrada da Costa do Estoril
8404,Apr,4,18,Tuesday,0,0,1,38.699337,-9.18073,Lisboa,Avenida da Índia
8448,Apr,5,11,Wednesday,0,0,1,38.704657,-9.20234,Lisboa,Calçada do Galvão
8452,Apr,5,12,Wednesday,0,0,1,38.744993,-9.198054,Lisboa,Avenida Gomes Pereira
8479,Apr,5,17,Wednesday,0,0,2,38.73589,-9.200572,Lisboa,Estrada de Monsanto
8480,Apr,5,17,Wednesday,0,0,1,38.760218,-9.172398,Lisboa,Eixo Norte-Sul
8482,Apr,5,17,Wednesday,0,0,2,38.710964,-9.139695,Lisboa,Rua Garrett
8484,Apr,5,18,Wednesday,0,0,1,38.71274,-9.173622,Lisboa,Rua Maria Pia
8497,Apr,5,19,Wednesday,0,0,1,38.72139,-9.151868,Lisboa,Rua Rodrigo da Fonseca
8501,Apr,5,20,Wednesday,0,0,1,38.755724,-9.194279,Lisboa,Avenida Lusíada
8510,Apr,6,2,Thursday,0,0,1,38.759431,-9.156216,Lisboa,Campo Grande
8513,Apr,6,6,Thursday,0,0,1,38.721754,-9.12882,Lisboa,Avenida General Roçadas
8520,Apr,6,8,Thursday,0,0,1,38.752536,-9.173998,Lisboa,Estrada da Luz
8531,Apr,6,10,Thursday,0,0,1,38.709993,-9.177905,Lisboa,Acesso à Ponte 25 de Abril
8538,Apr,6,11,Thursday,0,0,1,38.747658,-9.115805,Lisboa,Avenida da Ucrânia
8580,Apr,6,18,Thursday,0,0,1,38.780227,-9.125413,Lisboa,Avenida Engenheiro Duarte Pacheco
8587,Apr,6,19,Thursday,0,0,1,38.74287,-9.15096,Lisboa,Rua Ivone Silva
8601,Apr,6,21,Thursday,0,0,1,38.707771,-9.178095,Lisboa,Ponte 25 de Abril
8608,Apr,6,23,Thursday,0,0,1,38.703617,-9.168076,Lisboa,Avenida 24 de Julho
8617,Apr,7,4,Friday,0,0,1,38.762944,-9.141944,Lisboa,Avenida Marechal Craveiro Lopes/2ª Circular
8651,Apr,7,14,Friday,0,0,1,38.757681,-9.179084,Lisboa,Estrada da Luz
8680,Apr,7,16,Friday,0,0,2,38.723262,-9.165598,Lisboa,Avenida Engenheiro Duarte Pacheco
8722,Apr,7,21,Friday,0,0,1,38.734378,-9.153935,Lisboa,Alameda Cardeal Cerejeira
8784,Apr,8,14,Saturday,0,0,1,38.748244,-9.148075,Lisboa,Rotunda de Entrecampos
8829,Apr,8,19,Saturday,0,0,1,38.737475,-9.150801,Lisboa,Avenida Visconde de Valmor
8846,Apr,8,23,Saturday,0,0,1,38.742714,-9.197602,Lisboa,Avenida General Correia Barreto/Radial de Benfica
8851,Apr,9,3,Sunday,0,0,1,38.71459,-9.136326,Lisboa,Rua do Arco do Marquês de Alegrete
8862,Apr,9,11,Sunday,0,0,1,38.719713,-9.129748,Lisboa,Rua da Graça
8902,Apr,9,20,Sunday,0,0,1,38.751486,-9.206194,Lisboa,Estrada de A-da-Maia
8910,Apr,9,21,Sunday,0,0,1,38.70651,-9.154958,Lisboa,Avenida 24 de Julho
10965,May,1,0,Monday,0,0,1,38.707072,-9.142061,Lisboa,Avenida Engenheiro Duarte Pacheco
10968,May,1,2,Monday,0,0,1,38.733415,-9.168944,Lisboa,Rua B do Bairro da Liberdade
11012,May,1,15,Monday,0,0,1,38.790434,-9.150663,Lisboa,Estrada Militar
11043,May,1,21,Monday,0,0,1,38.700892,-9.20684,Lisboa,Rua dos Jerónimos
11052,May,2,7,Tuesday,0,0,2,38.763092,-9.109386,Lisboa,Avenida Cidade de Luanda
11058,May,2,7,Tuesday,0,0,1,38.708245,-9.178061,Lisboa,Ponte 25 de Abril
11075,May,2,10,Tuesday,0,0,1,38.718296,-9.16561,Lisboa,Rua Tomás da Anunciação
11087,May,2,13,Tuesday,0,0,2,38.736673,-9.158973,Lisboa,Avenida Calouste Gulbenkian
11097,May,2,14,Tuesday,0,0,1,38.706394,-9.14495,Lisboa,Avenida 24 de Julho
11122,May,2,17,Tuesday,0,0,1,38.715074,-9.146048,Lisboa,Travessa do Conde de Soure
11136,May,2,18,Tuesday,0,0,2,38.764312,-9.153445,Lisboa,Rua Agostinho Neto
11175,May,3,10,Wednesday,0,0,1,38.757306,-9.165097,Lisboa,Avenida General Norton de Matos/2ª Circular
11178,May,3,11,Wednesday,0,0,1,38.769461,-9.109628,Lisboa,Rua Contra-Almirante Armando Ferraz
11229,May,3,18,Wednesday,0,0,1,38.745301,-9.116417,Lisboa,Avenida Engenheiro Duarte Pacheco
11243,May,3,20,Wednesday,0,0,1,38.755946,-9.154529,Lisboa,Campo Grande
11248,May,3,22,Wednesday,0,0,2,38.705107,-9.185822,Lisboa,Rua João de Barros
11269,May,4,9,Thursday,0,0,1,38.728182,-9.136261,Lisboa,Rua de Arroios
11276,May,4,10,Thursday,0,0,2,38.777576,-9.147355,Lisboa,Eixo Central
11298,May,4,14,Thursday,0,0,1,38.748479,-9.167005,Lisboa,Eixo Norte-Sul
11303,May,4,14,Thursday,0,0,2,38.741163,-9.159279,Lisboa,Rua Cardeal Mercier
11319,May,4,17,Thursday,0,0,2,38.72192,-9.201849,Lisboa,Autoestrada da Costa do Estoril
11322,May,4,17,Thursday,0,1,0,38.762263,-9.162033,Lisboa,Rua Professor Fernando da Fonseca
11344,May,4,20,Thursday,0,0,1,38.730156,-9.140544,Lisboa,Rua de Dona Estefânia
11359,May,5,6,Friday,0,0,1,38.756723,-9.127156,Lisboa,Rua Luís Cristino da Silva
11404,May,5,13,Friday,0,0,1,38.756018,-9.176898,Lisboa,Rua dos Soeiros
11406,May,5,13,Friday,0,0,1,38.763993,-9.190333,Lisboa,Avenida Cidade de Praga
11411,May,5,14,Friday,0,0,1,38.750118,-9.162761,Lisboa,Avenida Professor Egas Moniz
11416,May,5,15,Friday,0,0,1,38.762602,-9.144861,Lisboa,Avenida Marechal Craveiro Lopes/2ª Circular
11424,May,5,16,Friday,0,0,1,38.720521,-9.153811,Lisboa,Vila Visconde de Santo Ambrósio
11428,May,5,16,Friday,0,0,1,38.751558,-9.169315,Lisboa,Eixo Norte-Sul
11433,May,5,17,Friday,0,0,1,38.763046,-9.147041,Lisboa,Rotunda Nelson Mandela
11445,May,5,18,Friday,0,0,2,38.731409,-9.146289,Lisboa,Avenida da República
11448,May,5,18,Friday,0,0,1,38.752939,-9.196881,Lisboa,Avenida Engenheiro Duarte Pacheco
11455,May,5,18,Friday,0,0,1,38.729678,-9.133865,Lisboa,Rua Marques da Silva
11487,May,6,4,Saturday,0,0,1,38.70645,-9.15532,Lisboa,Avenida 24 de Julho
11490,May,6,6,Saturday,0,0,1,38.706046,-9.150865,Lisboa,Rua da Cintura do Porto de Lisboa
11522,May,6,13,Saturday,0,0,2,38.730347,-9.161433,Lisboa,Avenida Miguel Torga
11524,May,6,13,Saturday,0,0,1,38.723508,-9.159648,Lisboa,Rua Silva de Carvalho
11540,May,6,16,Saturday,0,0,1,38.693641,-9.209802,Lisboa,Avenida de Brasília
11541,May,6,16,Saturday,0,0,1,38.703062,-9.174948,Lisboa,Rua de Cascais
11548,May,6,18,Saturday,0,0,1,38.780747,-9.162972,Lisboa,Estrada do Desvio
11549,May,6,18,Saturday,0,0,1,38.755823,-9.187392,Lisboa,Rua Albert Einstein
11698,May,8,8,Monday,0,0,1,38.785647,-9.147995,Lisboa,Rua dos Sete Céus
11705,May,8,8,Monday,0,0,1,38.722519,-9.135317,Lisboa,Avenida Almirante Reis
11710,May,8,10,Monday,0,0,1,38.747527,-9.099198,Lisboa,Rua Dois à Matinha
11718,May,8,11,Monday,0,0,1,38.712509,-9.129504,Lisboa,Largo do Salvador
11736,May,8,14,Monday,0,0,1,38.72415,-9.132398,Lisboa,Rua do Forno do Tijolo
11754,May,8,16,Monday,0,0,1,38.745197,-9.174946,Lisboa,Rua Padre Francisco Álvares
11783,May,8,19,Monday,0,0,1,38.751163,-9.159001,Lisboa,Avenida 5 de Outubro
11785,May,8,19,Monday,0,0,1,38.738701,-9.171535,Lisboa,Eixo Norte-Sul
11793,May,8,21,Monday,0,0,1,38.756443,-9.203592,Lisboa,Rua João Ortigão Ramos
11797,May,9,0,Tuesday,0,0,1,38.730629,-9.131817,Lisboa,Rua Marques da Silva
11819,May,9,8,Tuesday,0,0,1,38.793439,-9.099775,Lisboa,IC2
11825,May,9,9,Tuesday,0,0,2,38.776582,-9.164505,Lisboa,Calçada do Picadeiro
11832,May,9,10,Tuesday,0,0,1,38.721171,-9.126731,Lisboa,Rua de Sapadores
11843,May,9,11,Tuesday,0,0,1,38.719582,-9.129738,Lisboa,Rua da Graça
11862,May,9,16,Tuesday,0,0,1,38.731884,-9.128033,Lisboa,Rua Morais Soares
11889,May,9,19,Tuesday,0,0,1,38.711721,-9.143041,Lisboa,Rua da Misericórdia
11898,May,9,20,Tuesday,0,0,2,38.726771,-9.136612,Lisboa,Largo de Santa Bárbara
11912,May,10,7,Wednesday,0,0,1,38.720765,-9.161017,Lisboa,Rua Silva Carvalho
11914,May,10,8,Wednesday,0,0,1,38.768166,-9.099797,Lisboa,Avenida de Berlim
11931,May,10,10,Wednesday,0,0,1,38.729684,-9.140487,Lisboa,Rua de Dona Estefânia
11934,May,10,11,Wednesday,0,0,1,38.721961,-9.147002,Lisboa,Rua Barata Salgueiro
11947,May,10,13,Wednesday,0,0,1,38.735322,-9.157951,Lisboa,Rua Doutor Júlio Dantas
11953,May,10,14,Wednesday,0,0,1,38.724343,-9.128525,Lisboa,Avenida General Roçadas
11954,May,10,14,Wednesday,0,0,1,38.755421,-9.199163,Lisboa,Estrada dos Arneiros
11966,May,10,16,Wednesday,0,0,1,38.718703,-9.164029,Lisboa,Rua Ferreira Borges
11973,May,10,16,Wednesday,0,0,1,38.729629,-9.147362,Lisboa,Avenida Fontes Pereira de Melo
11979,May,10,17,Wednesday,0,0,1,38.745711,-9.192813,Lisboa,Avenida Eusébio da Silva Ferreira/2ª Circular
12002,May,10,19,Wednesday,0,0,1,38.793081,-9.155444,Lisboa,Rua do Grafanil
12037,May,11,8,Thursday,0,0,1,38.767953,-9.107703,Lisboa,Avenida de Berlim
12086,May,11,16,Thursday,0,0,1,38.74722,-9.20039,Lisboa,Rua das Garridas
12087,May,11,16,Thursday,0,0,1,38.761212,-9.148216,Lisboa,Rua das Murtas
12100,May,11,17,Thursday,0,0,1,38.710984,-9.192911,Lisboa,Rua do Sítio ao Casalinho da Ajuda
12112,May,11,18,Thursday,0,0,1,38.710135,-9.210987,Lisboa,Rua Carlos Calisto
12116,May,11,19,Thursday,0,0,1,38.749951,-9.170862,Lisboa,Avenida Lusíada
12128,May,11,20,Thursday,1,1,1,38.744866,-9.199467,Lisboa,Avenida Engenheiro Duarte Pacheco
12141,May,12,7,Friday,0,0,1,38.739829,-9.202409,Lisboa,Rotunda de Pina Manique
12147,May,12,8,Friday,0,0,1,38.744031,-9.185191,Lisboa,Avenida General Correia Barreto/Radial de Benfica
12167,May,12,12,Friday,0,0,1,38.735057,-9.169394,Lisboa,Eixo Norte-Sul
12168,May,12,12,Friday,0,0,1,38.715768,-9.159136,Lisboa,Rua de São Jorge
12196,May,12,16,Friday,0,0,1,38.757414,-9.164103,Lisboa,Avenida General Norton de Matos/2ª Circular
12207,May,12,18,Friday,0,0,1,38.769527,-9.10953,Lisboa,Rua Contra-Almirante Armando Ferraz
12218,May,12,19,Friday,0,0,3,38.733942,-9.149743,Lisboa,Rua Pinheiro Chagas
12237,May,12,23,Friday,0,0,1,38.720182,-9.165731,Lisboa,Rua Pereira e Sousa
12238,May,12,23,Friday,0,0,1,38.767386,-9.099968,Lisboa,Praça do Oriente
12246,May,13,1,Saturday,0,0,1,38.707596,-9.147743,Lisboa,Rua Dom Luís I
12250,May,13,4,Saturday,0,0,1,38.763034,-9.142256,Lisboa,Avenida Marechal Craveiro Lopes/2ª Circular
12251,May,13,4,Saturday,0,0,2,38.744099,-9.142725,Lisboa,Avenida Sacadura Cabral
12280,May,13,12,Saturday,0,0,1,38.76759,-9.114224,Lisboa,Rua Cidade de Nova Lisboa
12292,May,13,14,Saturday,0,0,1,38.762869,-9.174658,Lisboa,Rua Professor Carlos Teixeira
12296,May,13,14,Saturday,0,0,1,38.723142,-9.163603,Lisboa,Rua Tierno Galvan
12304,May,13,16,Saturday,0,0,1,38.720202,-9.164085,Lisboa,Rua Pereira e Sousa
12318,May,13,17,Saturday,0,0,1,38.747062,-9.156792,Lisboa,Avenida das Forças Armadas
12322,May,13,18,Saturday,0,0,1,38.725034,-9.152374,Lisboa,Rua Joaquim António de Aguiar
12358,May,14,2,Sunday,0,1,0,38.708602,-9.143271,Lisboa,Rua do Alecrim
12412,May,14,16,Sunday,0,0,1,38.718428,-9.164816,Lisboa,Rua do 4 de Infantaria
12423,May,14,18,Sunday,0,0,1,38.713272,-9.136445,Lisboa,Rua da Madalena
12443,May,14,20,Sunday,0,0,1,38.706974,-9.172987,Lisboa,Rua Maria Pia
14576,Jun,5,10,Monday,0,0,1,38.726109,-9.11215,Lisboa,Rua de Xabregas
14602,Jun,5,15,Monday,0,0,1,38.748881,-9.143803,Lisboa,Avenida dos Estados Unidos da América
14630,Jun,5,18,Monday,0,0,1,38.762355,-9.177911,Lisboa,Rua Manuel Rodrigues da Silva
14637,Jun,5,19,Monday,0,0,1,38.734492,-9.134057,Lisboa,Avenida Almirante Reis
14651,Jun,5,22,Monday,0,0,2,38.717284,-9.166397,Lisboa,Rua Almeida e Sousa
14655,Jun,6,2,Tuesday,0,0,1,38.748266,-9.11557,Lisboa,Avenida República da Bulgária
14669,Jun,6,8,Tuesday,0,0,1,38.744992,-9.1518,Lisboa,Rua Sousa Lopes
14684,Jun,6,11,Tuesday,0,0,1,38.74631,-9.131564,Lisboa,Avenida Frei Miguel Contreiras
14690,Jun,6,13,Tuesday,0,0,1,38.764326,-9.177123,Lisboa,Azinhaga da Torre do Fato
14691,Jun,6,13,Tuesday,0,0,1,38.719707,-9.18493,Lisboa,Estrada do Alvito
14692,Jun,6,13,Tuesday,0,0,1,38.706599,-9.155134,Lisboa,Avenida 24 de Julho
14730,Jun,6,18,Tuesday,0,0,1,38.693618,-9.209799,Lisboa,Avenida de Brasília
14757,Jun,7,8,Wednesday,0,0,1,38.720163,-9.145617,Lisboa,Avenida da Liberdade
14759,Jun,7,8,Wednesday,0,0,1,38.749134,-9.137256,Lisboa,Avenida dos Estados Unidos da América
14774,Jun,7,11,Wednesday,0,0,1,38.724185,-9.150636,Lisboa,Rua Braamcamp
14780,Jun,7,12,Wednesday,0,0,1,38.70511,-9.185793,Lisboa,Rua João de Barros
14785,Jun,7,13,Wednesday,0,0,1,38.723299,-9.148396,Lisboa,Rua Alexandre Herculano
14790,Jun,7,13,Wednesday,0,0,1,38.762782,-9.129881,Lisboa,Praça do Aeroporto
14805,Jun,7,16,Wednesday,0,0,4,38.739102,-9.201928,Lisboa,Estrada de Monsanto
14809,Jun,7,16,Wednesday,0,1,0,38.721988,-9.150863,Lisboa,Rua Alexandre Herculano
14837,Jun,7,23,Wednesday,0,0,1,38.732573,-9.10979,Lisboa,Estrada de Marvila
14839,Jun,8,0,Thursday,0,0,1,38.706371,-9.155737,Lisboa,Avenida 24 de Julho
14845,Jun,8,2,Thursday,0,0,1,38.730578,-9.127317,Lisboa,Avenida Mouzinho de Albuquerque
14846,Jun,8,3,Thursday,0,0,1,38.72114,-9.209158,Lisboa,Estrada da Circunvalação
14850,Jun,8,7,Thursday,0,0,1,38.740719,-9.201029,Lisboa,Avenida Eusébio da Silva Ferreira/2ª Circular
14857,Jun,8,8,Thursday,0,0,1,38.744248,-9.165078,Lisboa,Rua das Furnas
14879,Jun,8,13,Thursday,0,0,1,38.751744,-9.148169,Lisboa,Rua Afonso Lopes Vieira
14888,Jun,8,14,Thursday,0,0,1,38.737855,-9.126181,Lisboa,Rotunda das Olaias
14896,Jun,8,15,Thursday,0,0,1,38.709149,-9.143661,Lisboa,Rua das Flores
14941,Jun,9,1,Friday,0,0,1,38.715777,-9.145936,Lisboa,Rua Dom Pedro V 56
14966,Jun,9,9,Friday,0,0,1,38.726286,-9.134451,Lisboa,Rua de Angola
14992,Jun,9,12,Friday,0,0,1,38.757238,-9.137,Lisboa,Rua Marquês de Soveral
15016,Jun,9,15,Friday,0,0,1,38.714642,-9.177431,Lisboa,Autoestrada do Sul
15031,Jun,9,17,Friday,0,0,1,38.723974,-9.121738,Lisboa,Avenida Mouzinho de Albuquerque
15037,Jun,9,18,Friday,0,0,1,38.7193,-9.129806,Lisboa,Rua da Graça
15038,Jun,9,18,Friday,0,0,2,38.7744,-9.150406,Lisboa,Avenida Carlos Paredes
15048,Jun,9,21,Friday,0,0,1,38.774088,-9.107303,Lisboa,Avenida Doutor Alfredo Bensaúde
15065,Jun,10,4,Saturday,0,0,1,38.758038,-9.161102,Lisboa,Avenida General Norton de Matos/2ª Circular
15070,Jun,10,9,Saturday,0,0,1,38.737069,-9.145602,Lisboa,Avenida da República
15093,Jun,10,13,Saturday,0,0,1,38.769592,-9.124048,Lisboa,Avenida de Berlim
15099,Jun,10,15,Saturday,0,0,1,38.717579,-9.150842,Lisboa,Rua da Escola Politécnica
15120,Jun,10,19,Saturday,0,0,1,38.722188,-9.196663,Lisboa,Pista do Penedo
15127,Jun,10,20,Saturday,0,0,1,38.710408,-9.143842,Lisboa,Praça Luís de Camões
15128,Jun,10,20,Saturday,0,0,1,38.720185,-9.164881,Lisboa,Rua Pereira e Sousa
15144,Jun,11,1,Sunday,0,0,1,38.741181,-9.148147,Lisboa,Avenida de Berna
15219,Jun,11,22,Sunday,0,0,1,38.706206,-9.171671,Lisboa,Calçada do Livramento
17547,Jul,3,7,Monday,0,0,1,38.73872,-9.140314,Lisboa,Rua Ladislau Piçarra
17566,Jul,3,10,Monday,0,0,2,38.76258,-9.12971,Lisboa,Avenida Almirante Gago Coutinho
17595,Jul,3,15,Monday,0,0,1,38.733462,-9.168585,Lisboa,Eixo Norte-Sul
17615,Jul,3,17,Monday,0,0,1,38.752458,-9.167936,Lisboa,Rua São Tomás de Aquino
17622,Jul,3,18,Monday,0,0,2,38.718667,-9.164047,Lisboa,Rua Ferreira Borges
17624,Jul,3,18,Monday,0,0,1,38.733773,-9.153609,Lisboa,Rua Marquês de Fronteira
17649,Jul,3,20,Monday,0,0,1,38.743629,-9.181033,Lisboa,Rua Conde de Almoster
17681,Jul,4,9,Tuesday,0,0,1,38.752706,-9.208076,Lisboa,Estrada de Benfica
17694,Jul,4,11,Tuesday,0,0,1,38.699629,-9.224879,Lisboa,Rua Dom Jerónimo Osório
17713,Jul,4,14,Tuesday,1,0,0,38.787443,-9.148717,Lisboa,Rua Hermínio da Palma Inácio
17715,Jul,4,14,Tuesday,0,0,1,38.749255,-9.167586,Lisboa,Eixo Norte-Sul
17722,Jul,4,16,Tuesday,0,0,1,38.726517,-9.118893,Lisboa,Avenida Afonso III
17730,Jul,4,16,Tuesday,0,0,1,38.727987,-9.160875,Lisboa,Rua Marquês de Fronteira
17743,Jul,4,18,Tuesday,0,0,5,38.737403,-9.156496,Lisboa,Praça de Espanha
17778,Jul,5,8,Wednesday,0,0,1,38.763219,-9.13861,Lisboa,Avenida Marechal Craveiro Lopes/2ª Circular
17788,Jul,5,10,Wednesday,0,0,1,38.753275,-9.143967,Lisboa,Avenida da Igreja
17822,Jul,5,16,Wednesday,0,1,0,38.72448,-9.19538,Lisboa,Autoestrada da Costa do Estoril
17836,Jul,5,18,Wednesday,0,0,1,38.7197,-9.161425,Lisboa,Rua do Cabo
17873,Jul,5,21,Wednesday,0,0,1,38.745659,-9.161223,Lisboa,Avenida Professor Egas Moniz
17879,Jul,5,23,Wednesday,0,0,1,38.736068,-9.146051,Lisboa,Avenida João Crisóstomo
17896,Jul,6,8,Thursday,0,0,1,38.702551,-9.173096,Lisboa,Avenida de Brasília
17898,Jul,6,8,Thursday,0,0,1,38.736812,-9.158698,Lisboa,Praça de Espanha
17900,Jul,6,9,Thursday,0,0,1,38.723561,-9.135204,Lisboa,Avenida Almirante Reis
17905,Jul,6,9,Thursday,0,0,1,38.713717,-9.180955,Lisboa,Avenida Engenheiro Duarte Pacheco
17917,Jul,6,12,Thursday,0,0,1,38.710975,-9.222239,Lisboa,Circular Regional Interior de Lisboa (CRIL)
17942,Jul,6,16,Thursday,0,0,1,38.72562,-9.188159,Lisboa,Autoestrada da Costa do Estoril
17953,Jul,6,17,Thursday,0,0,1,38.74419,-9.149358,Lisboa,Ciclovia Avenida da República
17989,Jul,6,21,Thursday,0,0,1,38.743158,-9.114293,Lisboa,Avenida João Paulo II
18002,Jul,7,7,Friday,0,0,1,38.735058,-9.151948,Lisboa,Rua Marquês de Fronteira
18020,Jul,7,10,Friday,0,0,1,38.729748,-9.162806,Lisboa,Travessa das Irmãzinhas dos Pobres
18040,Jul,7,12,Friday,0,0,1,38.704465,-9.189272,Lisboa,Rua Aliança Operária
18047,Jul,7,13,Friday,0,0,1,38.753626,-9.160135,Lisboa,Avenida 5 de Outubro
18060,Jul,7,15,Friday,0,0,1,38.709894,-9.133956,Lisboa,Largo da Sé
18072,Jul,7,17,Friday,0,0,1,38.735136,-9.165296,Lisboa,Rua de Campolide
18101,Jul,7,19,Friday,0,0,1,38.767666,-9.09775,Lisboa,Avenida Dom João II
18103,Jul,7,19,Friday,0,0,2,38.726696,-9.144889,Lisboa,Rua do Conde de Redondo
18117,Jul,7,21,Friday,0,0,1,38.731034,-9.150958,Lisboa,Avenida António Augusto de Aguiar
18119,Jul,7,22,Friday,0,0,1,38.714499,-9.162202,Lisboa,Rua Domingos Sequeira
18162,Jul,8,12,Saturday,0,0,1,38.72339,-9.182253,Lisboa,Estrada da Pimenteira
18183,Jul,8,16,Saturday,0,0,1,38.706058,-9.150869,Lisboa,Rua da Cintura do Porto de Lisboa
18236,Jul,9,8,Sunday,0,0,1,38.727674,-9.167617,Lisboa,Rua 2
18270,Jul,9,13,Sunday,0,0,1,38.737573,-9.133557,Lisboa,Avenida Almirante Reis
18297,Jul,9,18,Sunday,0,0,1,38.707601,-9.150468,Lisboa,Rua do Instituto Industrial
18311,Jul,9,19,Sunday,0,0,1,38.750503,-9.203034,Lisboa,Rua Emília das Neves
18327,Jul,9,21,Sunday,0,0,1,38.76081,-9.120554,Lisboa,Avenida Engenheiro Duarte Pacheco
21581,Aug,7,2,Monday,0,0,1,38.732945,-9.13159,Lisboa,Rua Morais Soares
21669,Aug,7,17,Monday,0,0,1,38.728243,-9.124279,Lisboa,Avenida Mouzinho de Albuquerque
21715,Aug,8,0,Tuesday,0,0,1,38.738804,-9.150652,Lisboa,Avenida Marquês de Tomar
21762,Aug,8,14,Tuesday,0,0,1,38.767509,-9.099585,Lisboa,Praça do Oriente
21780,Aug,8,17,Tuesday,0,0,1,38.748228,-9.180775,Lisboa,Rua Maestro Frederico de Freitas
21790,Aug,8,18,Tuesday,0,1,0,38.763779,-9.153569,Lisboa,Rua Agostinho Neto
21798,Aug,8,18,Tuesday,0,0,1,38.721347,-9.128945,Lisboa,Rua de Sapadores
21804,Aug,8,19,Tuesday,0,0,1,38.725148,-9.172377,Lisboa,Avenida de Ceuta
21823,Aug,9,5,Wednesday,0,0,1,38.779911,-9.125804,Lisboa,Rua C
21868,Aug,9,15,Wednesday,0,0,1,38.733805,-9.107374,Lisboa,Calçada do Duque de Lafões
21887,Aug,9,17,Wednesday,0,0,1,38.725424,-9.208368,Lisboa,Estrada da Circunvalação
21905,Aug,9,19,Wednesday,0,0,1,38.724743,-9.135138,Lisboa,Avenida Almirante Reis
22086,Aug,11,10,Friday,0,0,1,38.730716,-9.107586,Lisboa,Beco do Grilo
22101,Aug,11,11,Friday,0,0,1,38.75445,-9.18538,Lisboa,Avenida Eusébio da Silva Ferreira/2ª Circular
22122,Aug,11,15,Friday,0,0,1,38.734524,-9.157978,Lisboa,Rua Fialho de Almeida
22175,Aug,11,19,Friday,0,0,1,38.780123,-9.16391,Lisboa,Rua Professor José Pinto Correia
22207,Aug,12,3,Saturday,0,0,2,38.702624,-9.1731,Lisboa,Avenida de Brasília
22219,Aug,12,7,Saturday,0,0,1,38.741841,-9.167627,Lisboa,Praça Marechal Humberto Delgado
22253,Aug,12,12,Saturday,0,0,1,38.703736,-9.206487,Lisboa,Rua Gonçalves Zarco
22260,Aug,12,13,Saturday,0,0,1,38.768557,-9.101757,Lisboa,Avenida Aquilino Ribeiro Machado
22275,Aug,12,16,Saturday,0,0,2,38.736888,-9.158298,Lisboa,Avenida Calouste Gulbenkian
22282,Aug,12,16,Saturday,0,0,4,38.72479,-9.184631,Lisboa,Autoestrada da Costa do Estoril
22329,Aug,13,4,Sunday,0,0,1,38.720119,-9.117312,Lisboa,Avenida Mouzinho de Albuquerque
22378,Aug,13,14,Sunday,0,0,1,38.745056,-9.187224,Lisboa,Rua Conde de Almoster
22380,Aug,13,15,Sunday,0,0,1,38.740394,-9.154609,Lisboa,Avenida Engenheiro Duarte Pacheco
24668,Sep,4,7,Monday,0,0,1,38.706046,-9.150865,Lisboa,Rua da Cintura do Porto de Lisboa
24674,Sep,4,7,Monday,0,0,1,38.730051,-9.170157,Lisboa,Eixo Norte-Sul
24676,Sep,4,8,Monday,0,0,1,38.753979,-9.195933,Lisboa,Avenida Marechal Teixeira Rebelo
24682,Sep,4,9,Monday,0,0,1,38.737945,-9.147981,Lisboa,Avenida Visconde de Valmor
24686,Sep,4,10,Monday,0,0,1,38.716983,-9.137179,Lisboa,Rua José António Serrano
24702,Sep,4,12,Monday,0,0,1,38.727591,-9.140569,Lisboa,Rua de Dona Estefânia
24743,Sep,4,15,Monday,0,0,1,38.759163,-9.156347,Lisboa,Campo Grande
24804,Sep,4,22,Monday,0,0,1,38.725057,-9.152849,Lisboa,Rua Joaquim António de Aguiar
24827,Sep,5,8,Tuesday,0,0,1,38.73979,-9.168926,Lisboa,Rua Francisco Gentil Martins
24866,Sep,5,15,Tuesday,0,0,1,38.760654,-9.096207,Lisboa,Alameda dos Oceanos
24888,Sep,5,19,Tuesday,0,0,1,38.731581,-9.134315,Lisboa,Avenida Almirante Reis
24901,Sep,5,23,Tuesday,0,0,1,38.723683,-9.165859,Lisboa,Rua do Arco do Carvalhão
24908,Sep,6,8,Wednesday,0,0,1,38.70934,-9.129024,Lisboa,Ciclovia Ribeirinha Terminal de Cruzeiros
24921,Sep,6,9,Wednesday,0,0,1,38.753254,-9.143884,Lisboa,Praça de Alvalade
24935,Sep,6,13,Wednesday,0,0,2,38.714022,-9.125258,Lisboa,Calçada do Cascão
24941,Sep,6,14,Wednesday,0,0,1,38.759341,-9.111564,Lisboa,Rua de Mocímboa da Praia
24954,Sep,6,16,Wednesday,0,0,1,38.754161,-9.190536,Lisboa,Avenida Lusíada
24960,Sep,6,17,Wednesday,0,0,1,38.709269,-9.177988,Lisboa,Acesso à Ponte 25 de Abril
24974,Sep,6,18,Wednesday,0,0,1,38.716389,-9.142318,Lisboa,Praça dos Restauradores
24981,Sep,6,20,Wednesday,0,0,1,38.705776,-9.185138,Lisboa,Calçada da Tapada
24996,Sep,7,8,Thursday,0,0,2,38.756604,-9.181138,Lisboa,Avenida Eusébio da Silva Ferreira/2ª Circular
25100,Sep,8,9,Friday,0,0,1,38.737133,-9.128694,Lisboa,Rua Barão de Sabrosa
25106,Sep,8,11,Friday,0,1,0,38.762136,-9.116372,Lisboa,Rua Cidade de Bolama
25107,Sep,8,11,Friday,0,1,2,38.750401,-9.206603,Lisboa,Rua Doutor Cunha Seixas
25130,Sep,8,15,Friday,0,0,1,38.723045,-9.175674,Lisboa,Eixo Norte-Sul
25144,Sep,8,17,Friday,0,0,1,38.762928,-9.107476,Lisboa,Avenida de Pádua
25180,Sep,8,23,Friday,0,0,1,38.724897,-9.184912,Lisboa,Autoestrada da Costa do Estoril
25241,Sep,9,14,Saturday,0,0,1,38.761759,-9.115017,Lisboa,Rua Cidade de Bolama
25290,Sep,9,22,Saturday,0,0,2,38.726389,-9.145318,Lisboa,Rua Luciano Cordeiro
25349,Sep,10,15,Sunday,0,0,1,38.762048,-9.130689,Lisboa,Avenida do Brasil
25354,Sep,10,16,Sunday,0,0,1,38.720333,-9.145704,Lisboa,Avenida da Liberdade
25366,Sep,10,17,Sunday,0,0,1,38.724369,-9.140047,Lisboa,Rua Gomes Freire
25367,Sep,10,18,Sunday,0,0,1,38.758637,-9.180384,Lisboa,Estrada da Luz
27714,Oct,2,1,Monday,0,0,1,38.72149,-9.128855,Lisboa,Avenida General Roçadas
27716,Oct,2,1,Monday,0,0,1,38.711311,-9.153657,Lisboa,Avenida Dom Carlos I
27731,Oct,2,8,Monday,0,0,1,38.775211,-9.150334,Lisboa,Rua José Cardoso Pires
27775,Oct,2,16,Monday,0,0,1,38.705183,-9.18393,Lisboa,Rua Jau
27807,Oct,2,19,Monday,0,0,1,38.760412,-9.148911,Lisboa,Rua das Murtas
27866,Oct,3,13,Tuesday,0,0,3,38.775223,-9.160729,Lisboa,Eixo Norte-Sul
27867,Oct,3,14,Tuesday,0,0,2,38.751699,-9.158944,Lisboa,Alameda da Universidade
27877,Oct,3,15,Tuesday,0,0,1,38.718503,-9.152705,Lisboa,Rua da Escola Politécnica
27912,Oct,3,20,Tuesday,0,0,1,38.722822,-9.151593,Lisboa,Rua Castilho
27918,Oct,3,21,Tuesday,0,0,1,38.72273,-9.169907,Lisboa,Avenida Engenheiro Duarte Pacheco
27919,Oct,3,21,Tuesday,0,0,1,38.764017,-9.157893,Lisboa,Ciclovia Rua Fernando Fonseca
27920,Oct,3,21,Tuesday,0,0,1,38.700626,-9.209422,Lisboa,Rua de Alcolena
27923,Oct,3,22,Tuesday,0,0,2,38.735079,-9.145047,Lisboa,Avenida Duque de Ávila
27929,Oct,4,6,Wednesday,0,0,1,38.72408,-9.179386,Lisboa,Autoestrada da Costa do Estoril
27940,Oct,4,8,Wednesday,0,0,1,38.745586,-9.139725,Lisboa,Avenida Frei Miguel Contreiras
27952,Oct,4,10,Wednesday,0,0,1,38.761373,-9.179711,Lisboa,Rua Padre Américo
27960,Oct,4,12,Wednesday,0,0,2,38.722422,-9.128761,Lisboa,Avenida General Roçadas
27964,Oct,4,13,Wednesday,0,0,1,38.745761,-9.169586,Lisboa,Praça Marechal Humberto Delgado
27977,Oct,4,15,Wednesday,0,0,1,38.793129,-9.15536,Lisboa,Rua do Grafanil
27984,Oct,4,16,Wednesday,0,0,1,38.716242,-9.135725,Lisboa,Rua da Senhora da Saúde
27989,Oct,4,17,Wednesday,0,0,1,38.713965,-9.122142,Lisboa,Avenida Infante Dom Henrique
28067,Oct,5,10,Thursday,0,0,1,38.775223,-9.160729,Lisboa,Eixo Norte-Sul
28068,Oct,5,10,Thursday,0,0,1,38.69892,-9.205613,Lisboa,Rua dos Jerónimos
28110,Oct,5,19,Thursday,0,0,1,38.760225,-9.15323,Lisboa,Avenida Marechal Craveiro Lopes/2ª Circular
28114,Oct,5,20,Thursday,0,0,1,38.769768,-9.194869,Lisboa,Estrada Militar
28168,Oct,6,13,Friday,0,0,2,38.697327,-9.194708,Lisboa,Rua da Junqueira
28174,Oct,6,14,Friday,0,0,1,38.733642,-9.145481,Lisboa,Ciclovia da Avenida Fontes Pereira de Melo
28175,Oct,6,14,Friday,0,0,1,38.713818,-9.122306,Lisboa,Avenida Infante Dom Henrique
28182,Oct,6,15,Friday,0,0,1,38.72196,-9.135366,Lisboa,Avenida Almirante Reis
28192,Oct,6,17,Friday,0,0,1,38.745914,-9.119701,Lisboa,Avenida Vergílio Ferreira
28193,Oct,6,17,Friday,0,0,1,38.758624,-9.160114,Lisboa,Avenida Padre Cruz
28195,Oct,6,17,Friday,0,0,1,38.795785,-9.098775,Lisboa,Viaduto sobre o Rio Trancão
28218,Oct,6,20,Friday,0,0,1,38.784054,-9.130106,Lisboa,Rua Salgueiro Maia
28220,Oct,6,21,Friday,0,0,1,38.72528,-9.186147,Lisboa,Autoestrada da Costa do Estoril
28222,Oct,6,21,Friday,0,0,1,38.74514,-9.198184,Lisboa,Avenida Gomes Pereira
28281,Oct,7,16,Saturday,0,0,1,38.765548,-9.097935,Lisboa,Avenida Dom João II
28304,Oct,7,20,Saturday,0,0,1,38.754299,-9.197711,Lisboa,Estrada dos Arneiros
28322,Oct,8,4,Sunday,0,0,1,38.70614,-9.149814,Lisboa,Rua da Cintura do Porto de Lisboa
28328,Oct,8,8,Sunday,0,0,1,38.775336,-9.155884,Lisboa,Avenida David Mourão-Ferreira
28350,Oct,8,12,Sunday,0,0,1,38.709788,-9.151846,Lisboa,Rua do Poço dos Negros
28359,Oct,8,15,Sunday,0,0,2,38.732454,-9.158166,Lisboa,Corredor Verde Monsanto-Parque Eduardo VII
28381,Oct,8,18,Sunday,0,0,1,38.731381,-9.135475,Lisboa,Rua Pascoal de Melo
31177,Nov,6,0,Monday,0,0,1,38.704968,-9.163343,Lisboa,Rua do Olival
31217,Nov,6,13,Monday,0,0,1,38.716649,-9.136428,Lisboa,Rua da Palma
31248,Nov,6,17,Monday,0,0,1,38.737727,-9.142363,Lisboa,Avenida António José de Almeida
31250,Nov,6,17,Monday,0,0,1,38.741248,-9.147135,Lisboa,Avenida de Berna
31255,Nov,6,18,Monday,0,0,1,38.767857,-9.107284,Lisboa,Avenida de Berlim
31260,Nov,6,19,Monday,0,0,1,38.727583,-9.109497,Lisboa,Rua da Manutenção
31271,Nov,6,20,Monday,0,0,1,38.720873,-9.15651,Lisboa,Rua Dom João V
31273,Nov,6,21,Monday,0,0,1,38.710353,-9.204938,Lisboa,Estrada de Caselas
31282,Nov,7,6,Tuesday,0,0,1,38.78217,-9.125373,Lisboa,Rua D
31301,Nov,7,8,Tuesday,0,0,1,38.706169,-9.153316,Lisboa,Avenida de Brasília
31304,Nov,7,9,Tuesday,0,0,1,38.747001,-9.16589,Lisboa,Eixo Norte-Sul
31306,Nov,7,9,Tuesday,0,0,3,38.785968,-9.100124,Lisboa,Rotunda República da Colômbia
31307,Nov,7,9,Tuesday,0,0,1,38.743269,-9.196677,Lisboa,Avenida General Correia Barreto/Radial de Benfica
31315,Nov,7,10,Tuesday,0,0,1,38.750252,-9.118951,Lisboa,Avenida Cidade de Bratislava
31328,Nov,7,13,Tuesday,0,0,1,38.775168,-9.097486,Lisboa,Praça do Venturoso
31360,Nov,7,20,Tuesday,0,0,1,38.741685,-9.118423,Lisboa,Avenida Carlos Pinhão
31393,Nov,8,10,Wednesday,0,1,0,38.727281,-9.144072,Lisboa,Rua do Conde de Redondo
31416,Nov,8,14,Wednesday,0,0,1,38.744253,-9.18937,Lisboa,Avenida General Correia Barreto/Radial de Benfica
31445,Nov,8,17,Wednesday,0,0,1,38.733292,-9.15409,Lisboa,Avenida António Augusto Aguiar
31455,Nov,8,18,Wednesday,0,0,1,38.72385,-9.196501,Lisboa,Autoestrada da Costa do Estoril
31479,Nov,8,22,Wednesday,0,0,1,38.754588,-9.185176,Lisboa,Avenida Eusébio da Silva Ferreira/2ª Circular
31506,Nov,9,9,Thursday,0,0,1,38.742437,-9.143847,Lisboa,Campo Pequeno
31513,Nov,9,9,Thursday,0,0,1,38.72444,-9.18124,Lisboa,Autoestrada da Costa do Estoril
31528,Nov,9,12,Thursday,0,0,2,38.741353,-9.168525,Lisboa,Avenida Engenheiro Duarte Pacheco
31551,Nov,9,17,Thursday,0,0,1,38.755499,-9.131615,Lisboa,Rua Francisco Franco
31583,Nov,10,1,Friday,0,0,1,38.718165,-9.137094,Lisboa,Rua José António Serrano
31592,Nov,10,8,Friday,0,0,1,38.708831,-9.138825,Lisboa,Rua de São Julião
31645,Nov,10,17,Friday,0,0,2,38.709552,-9.177899,Lisboa,Ponte 25 de Abril
31656,Nov,10,18,Friday,0,0,1,38.719691,-9.155682,Lisboa,Largo do Rato
31672,Nov,10,20,Friday,0,0,1,38.747812,-9.151445,Lisboa,Avenida das Forças Armadas
31680,Nov,10,22,Friday,0,1,0,38.741272,-9.146414,Lisboa,Avenida da República
31681,Nov,10,22,Friday,0,0,1,38.724576,-9.135331,Lisboa,Avenida Almirante Reis
31715,Nov,11,12,Saturday,0,0,1,38.716949,-9.136034,Lisboa,Ciclovia Martim Moniz
31724,Nov,11,13,Saturday,0,0,1,38.717476,-9.150649,Lisboa,Rua da Escola Politécnica
31784,Nov,12,3,Sunday,0,0,1,38.728076,-9.148458,Lisboa,Avenida Fontes Pereira de Melo
31801,Nov,12,11,Sunday,0,0,1,38.763247,-9.118681,Lisboa,Rua Cidade de Bissau
31813,Nov,12,13,Sunday,0,0,1,38.774023,-9.097456,Lisboa,Avenida Dom João II
31814,Nov,12,13,Sunday,0,0,1,38.72503,-9.185508,Lisboa,Autoestrada da Costa do Estoril
31856,Nov,12,21,Sunday,0,0,1,38.771964,-9.092504,Lisboa,Rua da Pimenta
33990,Dec,4,9,Monday,0,0,1,38.726905,-9.128398,Lisboa,Rua Mestre António Martins
33999,Dec,4,10,Monday,0,0,1,38.709118,-9.17778,Lisboa,Ponte 25 de Abril
34005,Dec,4,10,Monday,0,0,1,38.767665,-9.125578,Lisboa,Avenida Cidade do Porto
34028,Dec,4,13,Monday,0,0,1,38.709633,-9.135432,Lisboa,Rua de São Julião
34035,Dec,4,13,Monday,0,0,1,38.705615,-9.191893,Lisboa,Calçada Ernesto Silva
34062,Dec,4,19,Monday,0,0,1,38.77217,-9.092337,Lisboa,Rua da Pimenta
34118,Dec,5,15,Tuesday,0,0,1,38.777402,-9.117895,Lisboa,Rua 1º Cabo José Martins Silvestre
34126,Dec,5,17,Tuesday,0,0,1,38.728674,-9.156762,Lisboa,Rua Castilho
34131,Dec,5,17,Tuesday,0,0,1,38.743027,-9.198419,Lisboa,Estrada do Calhariz de Benfica
34160,Dec,6,7,Wednesday,0,0,1,38.694002,-9.210597,Lisboa,Avenida de Brasília
34163,Dec,6,7,Wednesday,0,0,1,38.72728,-9.158834,Lisboa,Rua da Artilharia 1
34217,Dec,6,17,Wednesday,0,0,1,38.751315,-9.197384,Lisboa,Avenida do Uruguai
34240,Dec,6,19,Wednesday,0,0,1,38.75888,-9.156162,Lisboa,Campo Grande
34242,Dec,6,20,Wednesday,0,0,1,38.772387,-9.056846,Lisboa,Vasco da Gama Bridge
34258,Dec,7,7,Thursday,0,0,1,38.769061,-9.179338,Lisboa,Estrada do Paço do Lumiar
34270,Dec,7,9,Thursday,0,0,1,38.710132,-9.135173,Lisboa,Rua da Madalena
34308,Dec,7,13,Thursday,0,0,1,38.761596,-9.110683,Lisboa,Rua Almada Negreiros
34310,Dec,7,13,Thursday,0,0,1,38.713642,-9.144438,Lisboa,Travessa da Água-da-Flor
34327,Dec,7,16,Thursday,0,0,3,38.764873,-9.177088,Lisboa,Azinhaga da Torre do Fato
34351,Dec,7,18,Thursday,0,0,1,38.723394,-9.148366,Lisboa,Avenida da Liberdade
34360,Dec,7,19,Thursday,0,0,1,38.698157,-9.224515,Lisboa,Rua Dom Jerónimo Osório
34367,Dec,7,20,Thursday,0,0,1,38.731087,-9.130851,Lisboa,Calçada do Poço dos Mouros
34374,Dec,7,22,Thursday,0,0,1,38.774067,-9.155603,Lisboa,Estrada da Torre
34377,Dec,7,22,Thursday,0,0,1,38.737068,-9.181574,Lisboa,Avenida 24 de Janeiro
34382,Dec,8,0,Friday,0,0,1,38.714616,-9.145905,Lisboa,Rua da Rosa
34386,Dec,8,2,Friday,0,0,1,38.71956,-9.209558,Lisboa,Autoestrada da Costa do Estoril
34398,Dec,8,9,Friday,0,0,1,38.773199,-9.10506,Lisboa,Praça José Queirós
34407,Dec,8,11,Friday,0,0,1,38.718528,-9.174832,Lisboa,Rua do Arco do Carvalhão
34436,Dec,8,18,Friday,0,0,2,38.71384,-9.161205,Lisboa,Rua da Estrela
34452,Dec,8,22,Friday,0,0,1,38.757522,-9.173466,Lisboa,Avenida General Norton de Matos/2ª Circular
34483,Dec,9,10,Saturday,0,0,2,38.769587,-9.124002,Lisboa,Avenida de Berlim
34490,Dec,9,11,Saturday,0,0,1,38.717994,-9.176514,Lisboa,Autoestrada do Sul
34528,Dec,9,18,Saturday,0,0,2,38.726454,-9.151238,Lisboa,Alameda Edgar Cardoso
34561,Dec,10,1,Sunday,0,0,1,38.707103,-9.13532,Lisboa,Praça do Comércio
34610,Dec,10,20,Sunday,0,0,1,38.715383,-9.137064,Lisboa,Rua da Palma
